City_ID,City,Lat,Lng,Max Temp,Humidity,Cloudiness,Wind Speed,Country,Date
0,agat village,13.3886,144.6585,27.52,90,75,5.14,GU,1682435253
1,khammam,17.25,80.15,29.47,58,93,2.88,IN,1682435253
2,hadibu,12.65,54.0333,28.69,67,93,0.53,YE,1682435254
3,udachny,66.4167,112.4,-7.1,94,100,4.78,RU,1682435254
4,adamstown,-25.066,-130.1015,25.05,86,2,5.15,PN,1682435254
5,yellowknife,62.456,-114.3525,0.87,80,100,5.81,CA,1682435255
6,tarawa,1.419,172.984,27.05,89,75,1.03,KI,1682435255
7,cuyo,10.8525,121.0086,28.92,77,31,8.6,PH,1682435255
8,olonkinbyen,70.9221,-8.7187,-3.42,73,94,5.95,SJ,1682435255
9,waitangi,-43.9535,-176.5597,14.9,82,66,6.26,NZ,1682435256
10,jamestown,42.097,-79.2353,7.53,53,75,5.66,US,1682435256
11,edinburgh of the seven seas,-37.0676,-12.3116,15.73,62,73,11.57,SH,1682435256
12,crane,31.3974,-102.3501,18.08,58,34,6.76,US,1682435256
13,punta arenas,-53.15,-70.9167,7.06,72,40,11.32,CL,1682435191
14,lucapa,-8.4192,20.7447,27.37,64,75,1.33,AO,1682435256
15,labasa,-16.4167,179.3833,23.04,87,25,2.12,FJ,1682435257
16,georgetown,5.4112,100.3354,28.96,89,40,1.03,MY,1682435202
17,senanga,-16.1167,23.2667,32.37,23,1,2.94,ZM,1682435257
18,tara,56.8944,74.371,11.12,68,81,3.75,RU,1682435257
19,lebu,-37.6167,-73.65,14.02,70,100,0.81,CL,1682435257
20,grytviken,-54.2811,-36.5092,3.09,99,100,3.19,GS,1682435257
21,umm kaddadah,13.6017,26.6876,39.7,11,86,5.64,SD,1682435257
22,callao,-12.0667,-77.15,25.95,78,100,5.66,PE,1682435257
23,college,64.8569,-147.8028,-9.03,53,40,4.12,US,1682435257
24,hawaiian paradise park,19.5933,-154.9731,21.13,87,40,2.57,US,1682435258
25,gizo,-8.103,156.8419,27.93,75,100,2.37,SB,1682435258
26,laguna,38.421,-121.4238,17.88,65,0,4.12,US,1682435258
27,ushuaia,-54.8,-68.3,6.79,70,75,9.77,AR,1682435177
28,koungou,-12.7336,45.2042,28.84,70,0,8.23,YT,1682435258
29,vorgashor,67.5833,63.95,-8.8,93,8,3.54,RU,1682435258
30,port-vila,-17.7338,168.3219,25.26,79,26,3.6,VU,1682435258
31,goz beida,13.95,20.55,39.69,11,100,4.1,TD,1682435259
32,lihue,21.9789,-159.3672,20.76,83,75,5.37,US,1682434963
33,hargeysa,9.56,44.065,23.64,63,83,7.44,SO,1682435259
34,vila franca do campo,37.7167,-25.4333,18.23,86,59,4.27,PT,1682435259
35,totskoye,52.5248,52.7623,16.81,50,100,3.94,RU,1682435259
36,san patricio,28.017,-97.5169,24.93,82,91,5.03,US,1682435260
37,longyearbyen,78.2186,15.6401,-4.09,58,0,1.54,SJ,1682435260
38,bam,29.106,58.357,27.24,19,56,6.69,IR,1682435260
39,anguera,-12.151,-39.2453,31.32,41,27,3.9,BR,1682435260
40,port mathurin,-19.6833,63.4167,26.23,79,60,8.07,MU,1682435260
41,fortuna,40.5982,-124.1573,9.4,91,100,2.02,US,1682435261
42,blackmans bay,-43.0167,147.3167,13.07,79,0,2.87,AU,1682435261
43,saipan,15.1355,145.701,27.39,100,75,7.2,MP,1682435261
44,kismayo,-0.3582,42.5454,28.67,73,100,4.84,SO,1682435261
45,kotabumi,-4.8333,104.9,25.33,92,100,0.84,ID,1682435261
46,albany,42.6001,-73.9662,9.34,65,48,0.89,US,1682435250
47,nemuro,43.3236,145.575,3.65,87,100,4.81,JP,1682435261
48,saint-pierre,-21.3393,55.4781,25.87,89,100,3.09,RE,1682435261
49,howard springs,-12.497,131.047,26.95,91,100,3.15,AU,1682435262
50,manokwari,-0.8667,134.0833,25.58,86,73,0.93,ID,1682435262
51,st. john's,47.5649,-52.7093,3.49,93,100,6.71,CA,1682435262
52,invercargill,-46.4,168.35,8.59,74,96,7.45,NZ,1682434969
53,hasaki,35.7333,140.8333,15.22,61,99,8.22,JP,1682435262
54,remire-montjoly,4.9167,-52.2667,26.02,94,75,5.66,GF,1682435262
55,bredasdorp,-34.5322,20.0403,19.66,57,27,4.47,ZA,1682435262
56,margaret river,-33.95,115.0667,14.95,76,99,9.84,AU,1682435049
57,hassi messaoud,31.6804,6.0729,33.75,13,0,1.65,DZ,1682435262
58,aasiaat,68.7098,-52.8699,-0.36,94,100,1.74,GL,1682435004
59,port-aux-francais,-49.35,70.2167,4.09,77,8,8.75,TF,1682435262
60,codrington,-38.2667,141.9667,15.84,67,63,3.42,AU,1682435263
61,fitchburg,42.5834,-71.8023,13.78,55,75,1.34,US,1682435263
62,prince albert,53.2001,-105.7677,3.5,69,100,5.68,CA,1682435263
63,carnarvon,-24.8667,113.6333,19.3,56,54,7.46,AU,1682435263
64,papatowai,-46.5619,169.4708,9.23,76,71,8.52,NZ,1682435263
65,temiskaming shores,47.4938,-79.7153,-1.11,92,100,3.65,CA,1682435263
66,bria,6.5423,21.9863,34.62,32,55,0.66,CF,1682435263
67,san fernando de apure,7.8878,-67.4724,24.37,85,100,2.95,VE,1682435263
68,strezhevoy,60.7333,77.5889,-2.37,96,99,1.26,RU,1682435264
69,ribeira grande,38.5167,-28.7,18.76,94,75,6.26,PT,1682435264
70,egilsstadir,65.2653,-14.3948,-0.05,69,100,7.2,IS,1682435004
71,stanley,54.868,-1.6985,8.77,62,20,4.63,GB,1682435264
72,kemin,42.7846,75.6892,10.17,69,34,2.79,KG,1682435265
73,kodiak,57.79,-152.4072,0.73,93,100,3.09,US,1682435148
74,gamba,-2.65,10.0,26.95,82,71,3.88,GA,1682435265
75,vadso,70.0744,29.7487,2.49,60,0,10.29,NO,1682435265
76,santa marta,11.2408,-74.199,28.8,65,73,2.44,CO,1682435265
77,torghay,49.6339,63.4981,17.75,34,1,2.82,KZ,1682435265
78,rongelap,11.1635,166.8941,24.94,89,100,3.7,MH,1682435265
79,mount gambier,-37.8333,140.7667,15.34,68,94,2.7,AU,1682435267
80,bath,51.3779,-2.3591,13.2,49,92,2.48,GB,1682435215
81,uturoa,-16.7333,-151.4333,27.15,80,98,6.38,PF,1682435267
82,kralendijk,12.15,-68.2667,30.99,58,20,4.12,BQ,1682435268
83,nuuk,64.1835,-51.7216,1.34,93,75,6.17,GL,1682435268
84,iqaluit,63.7506,-68.5145,-1.15,100,100,2.06,CA,1682435047
85,saldanha,-33.0117,17.9442,17.26,71,0,5.53,ZA,1682435268
86,carlos chagas,-17.7031,-40.7664,26.17,68,98,2.93,BR,1682435021
87,amga,60.8953,131.9608,-6.54,97,100,1.08,RU,1682435268
88,ust-nera,64.5667,143.2,-11.03,98,77,1.78,RU,1682435268
89,isafjordur,66.0755,-23.124,0.02,55,20,7.72,IS,1682435269
90,west island,-12.1568,96.8225,26.99,78,75,7.72,CC,1682435269
91,iskateley,67.6803,53.1512,-2.46,85,11,6.12,RU,1682435269
92,weligama,5.9667,80.4167,26.93,81,100,0.7,LK,1682435130
93,chadron,42.8294,-102.9999,6.82,65,100,4.63,US,1682435269
94,cockburn town,21.4612,-71.1419,25.34,72,53,2.77,TC,1682435269
95,qamdo,31.1667,97.2333,-0.38,67,100,1.46,CN,1682435269
96,kruisfontein,-34.0033,24.7314,19.38,72,95,2.45,ZA,1682435270
97,chabahar,25.2919,60.643,24.4,74,47,9.02,IR,1682435270
98,tibiri,13.5627,7.0485,40.32,12,69,2.81,NE,1682435270
99,bethel,41.3712,-73.414,14.12,52,40,2.06,US,1682435270
100,cabo san lucas,22.8909,-109.9124,20.84,88,0,2.06,MX,1682435192
101,tazovsky,67.4667,78.7,-8.59,95,42,3.85,RU,1682435270
102,belmonte,-15.8631,-38.8828,27.12,72,49,2.89,BR,1682435270
103,susuman,62.7833,148.1667,-14.25,99,89,1.65,RU,1682435270
104,hithadhoo,-0.6,73.0833,28.95,73,100,4.48,MV,1682435270
105,igarka,67.4667,86.5833,0.22,100,100,0.96,RU,1682435270
106,okakarara,-20.5833,17.4333,29.47,28,22,3.97,NA,1682435271
107,camiri,-20.05,-63.5167,16.61,95,100,0.78,BO,1682435271
108,san martin,-33.081,-68.4681,21.41,43,28,4.01,AR,1682435271
109,hermanus,-34.4187,19.2345,19.89,71,32,2.14,ZA,1682435271
110,melo,-32.3667,-54.1833,21.55,73,100,4.66,UY,1682435271
111,isangel,-19.55,169.2667,25.08,75,73,2.32,VU,1682435271
112,bubaque,11.2833,-15.8333,26.23,67,2,5.53,GW,1682435271
113,tommot,58.9564,126.2925,-7.17,96,97,1.4,RU,1682435271
114,taoudenni,22.6783,-3.9836,38.57,5,0,6.73,ML,1682435271
115,polyarnyy,69.1989,33.4478,0.13,73,10,7.36,RU,1682435271
116,rio gallegos,-51.6226,-69.2181,9.03,53,0,12.35,AR,1682435272
117,edmond,35.6528,-97.4781,8.95,90,100,5.36,US,1682435244
118,port alfred,-33.5906,26.891,21.77,86,94,0.45,ZA,1682435272
119,whitehorse,60.7161,-135.0538,-2.72,85,20,1.03,CA,1682435087
120,tarfaya,27.9358,-12.9218,20.94,78,31,4.11,MA,1682435272
121,kristinestad,62.2743,21.376,11.17,96,100,5.46,FI,1682435272
122,puerto ayora,-0.7393,-90.3518,27.98,89,5,1.79,EC,1682435273
123,el porvenir,13.7617,-87.3458,25.63,64,78,1.59,HN,1682435273
124,tiksi,71.6872,128.8694,-13.87,99,100,1.29,RU,1682435273
125,karratha,-20.7377,116.8463,27.14,42,100,4.88,AU,1682435273
126,bilibino,68.0546,166.4372,-15.29,76,92,1.6,RU,1682435273
127,kano,12.0001,8.5167,39.56,12,75,2.62,NG,1682435273
128,qaqortoq,60.7167,-46.0333,1.99,88,99,1.81,GL,1682435273
129,ruzayevka,54.0639,44.9509,10.95,91,100,8.16,RU,1682435273
130,bikenibeu village,1.3673,173.1241,26.98,89,75,1.03,KI,1682435273
131,guiglo,6.5456,-7.4966,34.15,45,90,0.97,CI,1682435274
132,talnakh,69.4865,88.3972,-3.95,86,68,2.58,RU,1682435274
133,bor,56.3567,44.0669,12.96,90,100,3.91,RU,1682435274
134,bayanaul,50.7889,75.6956,9.4,69,69,2.86,KZ,1682435274
135,merizo village,13.2658,144.6691,27.31,95,46,6.78,GU,1682435274
136,rong kwang,18.339,100.3174,31.36,38,63,1.26,TH,1682435275
137,avarua,-21.2078,-159.775,25.03,78,88,2.57,CK,1682435275
138,faya-largeau,17.9257,19.1043,40.7,6,26,4.63,TD,1682435275
139,tromso,69.6496,18.957,2.01,51,0,4.63,NO,1682435275
140,ilulissat,69.2167,-51.1,2.01,55,75,0.51,GL,1682435275
141,pangody,65.85,74.4859,-3.69,91,100,2.65,RU,1682435275
142,borzya,50.3833,116.5167,4.84,18,100,5.62,RU,1682435275
143,barcelos,41.5388,-8.6151,23.29,59,60,3.68,PT,1682435275
144,vorkuta,67.5,64.0,-8.87,93,8,3.4,RU,1682435275
145,kourou,5.1552,-52.6478,26.03,78,81,3.62,GF,1682435275
146,petropavlovsk-kamchatsky,53.0452,158.6483,-2.34,80,50,4.89,RU,1682435275
147,wailua homesteads,22.0669,-159.378,20.44,83,75,4.12,US,1682435276
148,port elizabeth,-33.918,25.5701,20.61,85,55,2.24,ZA,1682435276
149,nabire,-3.3667,135.4833,25.37,91,100,1.13,ID,1682435276
150,fale old settlement,-9.3852,-171.2468,28.69,75,87,3.32,TK,1682435276
151,sandnessjoen,66.0217,12.6316,4.8,46,75,5.66,NO,1682435276
152,marsh harbour,26.5412,-77.0636,24.31,72,10,6.66,BS,1682435129
153,tamanrasset,22.785,5.5228,31.95,8,0,1.03,DZ,1682435277
154,new norfolk,-42.7826,147.0587,13.72,67,0,1.53,AU,1682435277
155,dombasle-sur-meurthe,48.6252,6.3497,14.38,82,75,3.09,FR,1682435277
156,paso robles,35.6266,-120.691,14.09,93,100,1.54,US,1682435202
157,anuradhapura,8.3565,80.4173,26.05,86,100,1.59,LK,1682435277
158,joshimath,30.5667,79.5667,12.41,74,94,2.06,IN,1682435277
159,tinajo,29.0788,-13.7081,21.49,73,0,3.6,ES,1682435277
160,atafu village,-8.5421,-172.5159,28.66,76,57,4.12,TK,1682435278
161,jumla,29.2747,82.1838,8.19,82,67,1.19,NP,1682435278
162,prince rupert,54.3161,-130.3201,4.83,93,100,4.12,CA,1682435120
163,akureyri,65.6835,-18.0878,0.12,50,100,1.62,IS,1682435278
164,uttarkashi,30.7333,78.45,18.93,53,94,1.91,IN,1682435278
165,dudinka,69.4058,86.1778,0.53,96,100,4.7,RU,1682435278
166,ulaangom,49.9811,92.0667,1.23,39,30,8.18,MN,1682435279
167,zouerate,22.7187,-12.4521,34.83,12,6,3.1,MR,1682435279
168,selfoss,63.9331,-20.9971,4.51,52,100,1.88,IS,1682435279
169,badger,64.8,-147.5333,-9.07,53,40,4.12,US,1682435279
170,utrik,11.2278,169.8474,27.12,77,88,8.55,MH,1682435279
171,les anglais,18.3054,-74.2197,27.61,61,67,1.85,HT,1682435279
172,chadan,51.2833,91.5833,-1.08,47,67,2.84,RU,1682435279
173,yuzhno-kurilsk,44.0306,145.8556,3.12,88,100,3.4,RU,1682435280
174,huntsville,34.7304,-86.5861,14.11,52,100,3.09,US,1682435161
175,kingsbridge,50.2845,-3.7764,12.2,64,99,6.99,GB,1682435030
176,kuala lipis,4.1842,102.0468,24.01,93,100,0.26,MY,1682435280
177,nova sintra,14.8667,-24.7167,20.3,74,0,8.69,CV,1682435280
178,key west,24.5557,-81.7826,25.0,94,100,5.66,US,1682435152
179,vila velha,-20.3297,-40.2925,25.97,81,75,2.06,BR,1682435214
180,ancud,-41.8697,-73.8203,11.29,98,100,4.0,CL,1682435280
181,anadyr,64.75,177.4833,-11.72,79,0,1.0,RU,1682435281
182,sao vicente,-23.9631,-46.3919,28.48,61,97,1.34,BR,1682435281
183,east london,-33.0153,27.9116,21.24,85,96,3.55,ZA,1682435281
184,san antonio de pale,-1.4014,5.6325,28.59,71,100,0.62,GQ,1682435281
185,saacow,1.6279,42.4407,25.23,86,99,8.84,SO,1682435281
186,chui,-33.6971,-53.4616,19.54,89,100,3.12,UY,1682435281
187,kailua-kona,19.6406,-155.9956,23.11,81,20,2.68,US,1682435094
188,praia da vitoria,38.7333,-27.0667,19.86,88,6,6.77,PT,1682435282
189,puerto natales,-51.7236,-72.4875,9.25,53,40,8.75,CL,1682435263
190,port lincoln,-34.7333,135.8667,19.93,58,93,5.04,AU,1682435282
191,dar kulayb,26.0686,50.5039,28.28,62,59,4.18,BH,1682435282
192,suntar,62.1444,117.6319,-3.91,98,100,1.56,RU,1682435283
193,oroqen zizhiqi,50.5667,123.7167,-2.45,48,45,0.95,CN,1682435283
194,calbuco,-41.768,-73.1273,12.56,92,100,4.95,CL,1682435284
195,patterson,37.4716,-121.1297,17.81,70,11,3.9,US,1682435284
196,la'ie,21.6477,-157.9253,22.98,85,88,1.79,US,1682435284
197,sitangkai,4.6628,119.3928,29.04,72,89,3.13,PH,1682435285
198,kuruman,-27.4524,23.4325,25.0,28,0,4.85,ZA,1682435285
199,portland,45.5234,-122.6762,9.14,91,75,1.54,US,1682435280
200,pangkalpinang,-2.1333,106.1333,26.41,80,19,0.32,ID,1682435286
201,bogotol,56.2078,89.5342,-1.65,77,100,5.92,RU,1682435286
202,aral,40.5156,81.2636,20.42,19,10,11.84,CN,1682435122
203,sao joao da barra,-21.6403,-41.0511,26.05,70,53,2.25,BR,1682435121
204,prince george,53.9166,-122.753,6.25,53,0,4.12,CA,1682434998
205,kittila,67.6647,24.8936,4.08,33,0,4.12,FI,1682435287
206,wainwright,52.839,-110.8572,5.97,74,96,1.32,CA,1682435287
207,thunder bay,48.4001,-89.3168,0.99,82,68,2.78,CA,1682435287
208,warmbad,-28.45,18.7333,29.34,24,0,2.74,NA,1682435287
209,mount pearl,47.5166,-52.7813,3.03,94,100,3.13,CA,1682435287
210,vaskelovo,60.3693,30.3534,18.52,36,82,3.29,RU,1682435288
211,nizao,18.25,-70.2,29.64,63,67,3.68,DO,1682435288
212,kilindoni,-7.9139,39.6668,27.38,80,37,7.4,TZ,1682435288
213,port saint john's,-31.6229,29.5448,21.82,91,94,1.19,ZA,1682435288
214,aras-asan,8.8908,126.3033,26.18,82,31,1.35,PH,1682435289
215,sterling,39.0062,-77.4286,13.47,48,20,4.02,US,1682435001
216,edgewater,28.9889,-80.9023,26.69,80,3,3.09,US,1682435289
217,khandyga,62.6667,135.6,-7.08,98,89,1.02,RU,1682435290
218,tolanaro,-25.0319,46.9987,22.19,72,98,5.05,MG,1682435290
219,ilembula,-8.9,34.5833,21.26,77,22,3.43,TZ,1682435291
220,tranqueras,-31.2,-55.75,18.92,91,99,2.89,UY,1682435100
221,minas de marcona,-15.2119,-75.1103,20.71,64,9,5.97,PE,1682435291
222,argo,37.6333,22.7333,19.88,35,97,5.06,GR,1682435291
223,muisne,0.6,-80.0333,28.68,67,82,0.62,EC,1682435292
224,tremonton,41.7119,-112.1655,4.97,80,0,2.57,US,1682435292
225,sarangani,5.4033,125.4636,28.83,72,27,5.51,PH,1682435292
226,pembroke,45.8168,-77.1162,6.21,68,73,3.0,CA,1682435293
227,cooma,-36.2333,149.1333,7.38,88,2,0.31,AU,1682435293
228,enewetak,11.3474,162.3373,26.21,81,100,5.76,MH,1682435293
229,thompson,55.7435,-97.8558,-0.92,91,89,2.6,CA,1682435294
230,acapulco de juarez,16.8634,-99.8901,28.9,70,75,2.57,MX,1682435294
231,saurimo,-9.6608,20.3916,27.25,59,87,1.67,AO,1682435294
232,ust'-ilimsk,58.0006,102.6619,0.85,97,100,1.12,RU,1682435294
233,bani walid,31.7566,13.9942,30.98,14,1,3.61,LY,1682435294
234,manta,-0.95,-80.7333,29.88,66,20,2.06,EC,1682435295
235,flagstaff,35.1981,-111.6513,13.07,45,0,6.17,US,1682435162
236,cannonvale,-20.2833,148.7,23.66,67,16,8.95,AU,1682435295
237,marotta,43.764,13.1477,13.86,86,90,4.02,IT,1682435295
238,hirara,24.8,125.2833,22.85,83,97,6.16,JP,1682435296
239,labrador city,52.9463,-66.9114,5.93,70,100,3.0,CA,1682435296
240,skovorodino,53.9833,123.9167,-5.0,78,42,0.77,RU,1682435296
241,constantia,44.1833,28.65,16.38,86,100,5.95,RO,1682435240
242,ed damer,17.5928,33.9592,40.35,8,31,4.78,SD,1682435297
243,talpa de allende,20.3833,-104.8167,25.08,15,97,0.65,MX,1682435297
244,namibe,-15.1961,12.1522,25.84,67,18,3.72,AO,1682435297
245,janakkala,60.9,24.6,17.22,47,55,3.73,FI,1682435297
246,colonia,50.9333,6.95,12.76,45,20,5.66,DE,1682435265
247,gadzhiyevo,69.2551,33.3362,-0.2,75,11,7.58,RU,1682435298
248,nar'yan-mar,67.6713,53.087,-2.45,85,11,6.13,RU,1682435298
249,rampachodavaram,17.45,81.7667,27.95,70,40,2.08,IN,1682435240
250,pointe-noire,-4.7761,11.8635,28.34,78,95,4.56,CG,1682435298
251,haiku-pauwela,20.9219,-156.3051,22.25,83,100,2.06,US,1682435298
252,east ballina,-28.8667,153.5833,16.56,76,57,5.89,AU,1682435299
253,puerto baquerizo moreno,-0.9,-89.6,27.55,78,20,2.35,EC,1682435299
254,hamilton,39.1834,-84.5333,11.61,50,40,3.6,US,1682435043
255,tuy hoa,13.0833,109.3,25.22,91,52,2.13,VN,1682435220
256,at taj,24.2049,23.2857,34.95,11,2,7.27,LY,1682435300
257,verkhnevilyuysk,63.4453,120.3167,-6.65,98,100,1.03,RU,1682435300
258,shingu,33.7333,135.9833,17.01,93,100,6.45,JP,1682435300
259,zemio,5.0314,25.1361,32.09,42,100,1.29,CF,1682435300
260,nsunga,-1.1439,31.3947,21.91,87,100,0.86,TZ,1682435301
261,san luis de la loma,17.2706,-100.8939,27.08,65,100,1.29,MX,1682435301
262,nadym,65.5333,72.5167,-2.74,86,100,1.95,RU,1682435301
263,shenjiamen,29.9576,122.298,13.04,81,97,6.16,CN,1682435301
264,auki,-8.7676,160.7034,25.04,89,77,1.56,SB,1682435301
265,sambava,-14.2667,50.1667,27.01,85,33,1.55,MG,1682435302
266,kingscliff,-28.2667,153.5667,17.89,88,40,3.09,AU,1682435302
267,walvis bay,-22.9575,14.5053,20.05,62,35,8.62,NA,1682435302
268,francistown,-21.17,27.5079,32.49,19,4,3.15,BW,1682435302
269,zeya,53.75,127.2667,-2.95,68,66,2.26,RU,1682435302
270,san andres,12.5847,-81.7006,30.01,62,20,4.12,CO,1682435303
271,vilyuchinsk,52.9306,158.4028,-2.41,80,59,4.09,RU,1682435303
272,preobrazheniye,42.9019,133.9064,3.6,88,100,2.67,RU,1682435303
273,el bauga,18.262,33.9081,39.81,7,23,5.79,SD,1682435303
274,lompoc,34.6391,-120.4579,10.29,81,100,5.81,US,1682435304
275,antsiranana,-12.2787,49.2917,26.48,85,36,1.88,MG,1682435256
276,camacupa,-12.0167,17.4833,24.77,63,99,0.75,AO,1682435072
277,howrah,22.5892,88.3103,30.0,66,40,0.0,IN,1682435304
278,necochea,-38.5473,-58.7368,21.16,53,23,2.89,AR,1682435304
279,phalaborwa,-23.943,31.1411,31.35,27,5,3.85,ZA,1682435304
280,arkhipo-osipovka,44.37,38.52,11.91,80,26,2.25,RU,1682435305
281,pyrgos,37.6751,21.441,21.82,71,79,0.89,GR,1682435305
282,villa gesell,-37.2639,-56.973,21.14,76,100,2.34,AR,1682435305
283,kita,13.0349,-9.4895,42.84,9,2,1.62,ML,1682435305
284,porvoo,60.3923,25.6651,16.28,65,48,3.78,FI,1682435306
285,natal,-5.795,-35.2094,30.36,70,75,4.12,BR,1682435306
286,rolla,37.9514,-91.7713,14.57,50,0,3.09,US,1682435085
287,ilhabela,-23.7781,-45.3581,24.41,63,26,1.77,BR,1682435306
288,ketchikan,55.3422,-131.6461,4.26,87,75,1.54,US,1682435307
289,greenville,35.6127,-77.3663,18.41,45,0,3.6,US,1682435063
290,dwarka,22.2394,68.9678,27.37,81,99,8.33,IN,1682435307
291,geraldton,-28.7667,114.6,15.23,82,100,2.57,AU,1682435307
292,kuroiso,36.9667,140.05,10.32,85,100,4.48,JP,1682435307
293,nelidovo,56.2211,32.7774,16.97,41,82,2.62,RU,1682435307
294,horta,38.5333,-28.6333,18.34,92,75,6.26,PT,1682435308
295,brooks,50.5834,-111.8851,7.24,71,81,2.57,CA,1682435308
296,kununurra,-15.7667,128.7333,23.99,83,72,0.0,AU,1682435309
297,kristiansund,63.1115,7.732,4.03,87,75,3.09,NO,1682435309
298,beshkent,38.8214,65.6531,27.1,24,0,3.09,UZ,1682435309
299,alexandria,31.2156,29.9553,24.3,57,0,5.14,EG,1682435074
300,pozega,45.3403,17.6853,14.92,58,87,2.57,HR,1682435309
301,impfondo,1.6381,18.0667,30.22,56,94,0.2,CG,1682435310
302,weno,7.4515,151.8468,26.97,89,100,1.54,FM,1682435310
303,pathein,16.7833,94.7333,28.08,74,24,4.44,MM,1682435310
304,lorengau,-2.0226,147.2712,27.83,80,43,3.06,PG,1682435310
305,caleta de carquin,-11.0925,-77.6267,24.83,75,81,3.03,PE,1682435311
306,sweetwater,25.7634,-80.3731,27.22,77,100,4.63,US,1682435312
307,palmer,42.1584,-72.3287,13.94,53,40,1.34,US,1682435313
308,alice springs,-23.7,133.8833,15.75,63,0,3.48,AU,1682435313
309,avanigadda,16.0215,80.9181,28.55,70,24,2.92,IN,1682435314
310,quelimane,-17.8786,36.8883,24.3,74,6,2.79,MZ,1682435314
311,quellon,-43.1167,-73.6167,10.14,93,100,0.0,CL,1682435315
312,sumbawa besar,-8.5,117.4333,23.99,93,100,1.95,ID,1682435315
313,daru,-9.0763,143.2092,26.48,88,100,5.21,PG,1682435316
314,pimenta bueno,-11.6725,-61.1936,29.05,72,59,0.66,BR,1682435316
315,el calafate,-50.3408,-72.2768,6.55,69,5,2.48,AR,1682435316
316,newman,37.3138,-121.0208,14.94,70,11,0.45,US,1682435317
317,emerald,-23.5333,148.1667,16.86,71,13,3.32,AU,1682435174
318,plastun,44.7561,136.2939,3.51,85,100,2.88,RU,1682435317
319,inhambane,-23.865,35.3833,24.11,74,0,3.68,MZ,1682435317
320,severobaykal'sk,55.65,109.3167,-5.0,82,82,2.6,RU,1682435317
321,kodinsk,58.6881,99.1844,-0.89,96,100,5.3,RU,1682435317
322,saint-leu,-21.15,55.2833,25.53,89,23,1.58,RE,1682435317
323,rovaniemi,66.5,25.7167,4.67,35,0,7.2,FI,1682435317
324,kandalaksha,67.162,32.4123,0.26,88,88,1.39,RU,1682435317
325,sitka,57.0531,-135.33,2.94,87,75,3.6,US,1682435318
326,yugorsk,61.3133,63.3319,9.96,81,22,4.13,RU,1682435318
327,timbuktu,16.7735,-3.0074,39.69,6,0,6.45,ML,1682435318
328,tianshui,34.5439,105.6897,11.62,58,0,2.89,CN,1682435318
329,afaahiti,-17.75,-149.2833,23.93,85,100,6.42,PF,1682435318
330,queenstown,-31.8976,26.8753,22.31,38,93,0.58,ZA,1682435318
331,mukalla,14.5425,49.1242,28.69,69,23,3.45,YE,1682435318
332,dauphin,51.1494,-100.0502,4.19,53,84,2.91,CA,1682435319
333,tulum,20.2167,-87.4667,29.23,59,10,3.71,MX,1682435319
334,cacule,-14.5033,-42.2222,29.86,38,16,4.08,BR,1682435319
335,konarka,19.9,86.1167,25.22,67,86,1.95,IN,1682435183
336,burang,30.25,81.1667,-3.63,89,59,1.48,CN,1682435319
337,pacific grove,36.6177,-121.9166,9.82,89,18,4.92,US,1682435114
338,jiangyou,31.7667,104.7167,17.15,67,98,0.28,CN,1682435319
339,broken hill,-31.95,141.4333,18.86,49,89,4.32,AU,1682435320
340,nis,43.7031,7.2661,25.88,43,0,10.29,FR,1682435320
341,smithers,54.7804,-127.1743,2.18,87,75,1.03,CA,1682435320
342,holualoa,19.6228,-155.9522,21.04,78,20,2.68,US,1682435258
343,paraiso,9.8383,-83.8656,24.42,76,13,1.21,CR,1682435320
344,bodo,67.28,14.405,5.25,39,20,6.69,NO,1682435320
345,polovinnoye,54.7914,65.9864,17.24,35,2,3.57,RU,1682435320
346,carlsbad,33.1581,-117.3506,16.08,83,100,2.57,US,1682435102
347,buga,3.9009,-76.2978,24.93,70,92,0.48,CO,1682435321
348,suva,-18.1416,178.4415,23.71,94,75,2.06,FJ,1682435170
349,revda,56.801,59.9303,13.68,56,37,2.35,RU,1682435321
350,yaguajay,22.3272,-79.2378,28.16,55,15,3.13,CU,1682435321
351,cold lake,54.4502,-110.2017,3.38,83,92,2.64,CA,1682435295
352,soe,-9.8607,124.284,19.0,94,51,1.26,ID,1682435321
353,guatire,10.4762,-66.5427,30.67,43,38,1.06,VE,1682435322
354,jinghong,21.991,100.7341,25.49,39,27,1.62,CN,1682435123
355,buy,58.4786,41.53,16.11,50,100,2.4,RU,1682435322
356,shchyolkino,45.4291,35.8223,13.03,69,18,7.96,UA,1682435322
357,chengde,40.9725,117.9361,5.02,19,0,2.17,CN,1682435322
358,shengli,37.4564,118.4856,11.54,55,6,5.14,CN,1682435322
359,allen,41.0706,-85.0144,7.88,77,100,2.06,US,1682435145
360,kusheriki,10.5328,6.4422,38.82,20,85,2.96,NG,1682435323
361,yelizovo,53.1873,158.3805,-2.04,84,75,2.76,RU,1682435323
362,qalat,32.1058,66.9083,22.65,17,80,3.77,AF,1682435323
363,ixtapa,20.7,-105.2,22.57,60,100,0.0,MX,1682435054
364,chonchi,-42.6128,-73.8092,11.18,99,100,0.48,CL,1682435323
365,nizhneangarsk,55.7833,109.55,-4.99,81,91,2.41,RU,1682435323
366,huarmey,-10.0681,-78.1522,25.63,74,75,3.63,PE,1682435324
367,saint croix,17.7397,-64.7388,28.31,74,40,4.63,VI,1682435324
368,choyr,46.3611,108.3611,5.77,31,91,7.28,MN,1682435324
369,kingston,17.997,-76.7936,30.53,57,20,2.06,JM,1682435146
370,badr hunayn,23.7829,38.7905,31.79,30,4,4.83,SA,1682435324
371,demre,36.2537,29.9777,18.77,65,42,3.21,TR,1682435324
372,kerikeri,-35.2268,173.9474,12.17,94,2,2.0,NZ,1682435324
373,kabansk,52.0486,106.6528,-0.05,71,38,0.62,RU,1682435324
374,safi,32.1667,-8.8333,35.51,12,0,4.67,MA,1682435324
375,ginir,7.1333,40.7,17.48,81,99,1.05,ET,1682435324
376,illizi,26.4833,8.4667,33.39,14,5,6.51,DZ,1682435325
377,kone,-21.0595,164.8658,22.4,89,100,2.02,NC,1682435268
378,es castell,39.8795,4.2854,20.38,73,20,3.09,ES,1682435325
379,les cayes,18.2,-73.75,28.89,55,45,3.85,HT,1682435325
380,pemba,-12.974,40.5178,27.17,72,0,6.85,MZ,1682435325
381,aykhal,66.0,111.5,-8.41,96,100,4.17,RU,1682435325
382,sarina,-21.4333,149.2167,22.37,80,52,6.22,AU,1682435325
383,gwadar,25.1216,62.3254,26.97,72,66,2.71,PK,1682435326
384,granja,-3.1203,-40.8261,30.53,64,51,2.62,BR,1682435326
385,petauke,-14.2426,31.3253,22.95,59,0,2.0,ZM,1682435326
386,vilyuysk,63.7553,121.6247,-6.79,98,100,1.33,RU,1682435326
387,pisco,-13.7,-76.2167,24.03,73,30,2.06,PE,1682435326
388,doka,13.5167,35.7667,39.73,9,21,5.73,SD,1682435326
389,hoquiam,46.9809,-123.8893,9.44,80,0,1.54,US,1682435218
390,diamantina,-18.2494,-43.6003,23.5,52,13,2.63,BR,1682435327
391,amos,48.5669,-78.1162,1.1,97,100,0.73,CA,1682435327
392,nakano,36.75,138.3667,11.32,84,100,4.64,JP,1682435211
393,mejit,10.2753,170.8646,27.49,75,91,9.16,MH,1682435327
394,tura,25.5198,90.2201,24.56,44,25,1.48,IN,1682435327
395,fort william,56.8165,-5.1121,9.61,44,100,1.29,GB,1682435327
396,yangjiang,21.85,111.9667,20.44,77,100,3.72,CN,1682435172
397,port augusta,-32.5,137.7667,21.35,41,100,3.24,AU,1682435327
398,moab,38.5733,-109.5498,11.03,51,98,5.55,US,1682435130
399,beihai,21.4833,109.1,19.15,73,100,6.86,CN,1682435327
400,kapa'a,22.0752,-159.319,21.18,83,75,4.12,US,1682435327
401,izhevsk,56.85,53.2333,20.07,33,71,1.71,RU,1682435327
402,wotho,10.1657,166.0102,25.22,86,100,6.57,MH,1682435328
403,yeppoon,-23.1333,150.7333,20.88,73,54,8.92,AU,1682435328
404,olyokminsk,60.3736,120.4264,-2.94,91,100,1.36,RU,1682435328
405,puerto aysen,-45.4,-72.7,11.02,82,100,4.12,CL,1682435328
406,zhumysker,49.3333,49.4,12.9,90,100,5.26,KZ,1682435328
407,saint-francois,46.4154,3.9054,16.09,52,0,3.6,FR,1682435329
408,piti village,13.4626,144.6933,27.49,90,75,5.14,GU,1682435329
409,kasimov,54.9411,41.3953,10.55,94,100,3.75,RU,1682435330
410,dan khun thot,15.2085,101.7714,30.7,46,80,1.58,TH,1682435330
411,morant bay,17.8815,-76.4093,32.06,53,60,3.02,JM,1682435330
412,fort st. john,56.2499,-120.8529,3.67,58,74,7.53,CA,1682435331
413,ta`u,-14.2336,-169.5144,26.98,74,20,1.9,AS,1682435331
414,port hedland,-20.3167,118.5667,26.03,89,100,2.57,AU,1682435331
415,shahpur chakar,26.155,68.6509,34.01,9,100,4.17,PK,1682435331
416,nandura buzurg,20.8333,76.45,33.83,28,74,3.45,IN,1682435331
417,chornomorske,45.5039,32.6997,12.92,67,65,5.63,UA,1682435331
418,sovet,38.0467,69.5882,23.01,43,100,2.11,TJ,1682435331
419,zaxo,37.1482,42.7001,20.11,51,6,1.35,IQ,1682435331
420,malabar,-33.9667,151.25,15.99,86,0,2.12,AU,1682435331
421,happy valley-goose bay,53.3168,-60.3315,10.25,61,88,1.73,CA,1682435332
422,okha,53.5739,142.9478,-2.27,83,70,2.1,RU,1682435332
423,al ghayzah,16.2079,52.176,29.23,65,1,7.01,YE,1682435332
424,lata,40.1629,-8.3327,25.83,45,73,4.44,PT,1682435332
425,tra vinh,9.9347,106.3453,28.02,74,100,4.68,VN,1682435332
426,jiuquan,39.7432,98.5174,16.58,13,1,2.38,CN,1682435333
427,dire,12.2833,-10.9667,43.21,10,0,1.71,ML,1682435333
428,parkes,-33.1333,148.1833,15.2,67,0,2.29,AU,1682435333
429,bako,5.7833,36.5667,17.28,99,100,0.97,ET,1682435333
430,arraial do cabo,-22.9661,-42.0278,26.92,69,20,5.14,BR,1682435333
431,robertsport,6.7533,-11.3686,29.6,71,57,4.74,LR,1682435333
432,guarapari,-20.6667,-40.4975,25.5,72,53,3.95,BR,1682435334
433,dzhalagash,45.0833,64.6667,21.38,17,0,7.32,KZ,1682435334
434,ternate,0.8,127.4,27.61,79,51,1.44,ID,1682435335
435,linden,6.0,-58.3,27.99,77,100,1.47,GY,1682435335
436,magadan,59.5667,150.8,-2.06,86,97,5.31,RU,1682435335
437,safford,32.834,-109.7076,22.28,25,0,2.57,US,1682435335
438,arno,60.1167,18.6333,8.61,80,100,2.92,SE,1682435335
439,margate,51.3813,1.3862,10.73,63,29,1.79,GB,1682435335
440,port macquarie,-31.4333,152.9167,14.94,67,90,0.51,AU,1682435335
441,nafada,11.0956,11.3327,40.26,15,98,1.59,NG,1682435336
442,candelaria,13.9311,121.4233,26.88,90,6,2.49,PH,1682435336
443,los alamos,35.8881,-106.307,10.08,65,40,1.54,US,1682435336
444,jayapura,-2.5333,140.7,25.66,91,96,2.08,ID,1682435336
445,bamboo flat,11.7,92.7167,28.52,73,92,1.63,IN,1682435336
446,al mutayrifi,25.4788,49.5576,29.55,33,60,5.92,SA,1682435336
447,balotra,25.8333,72.2333,33.61,13,100,3.31,IN,1682435336
448,al wakrah,24.85,51.3333,29.48,42,80,5.38,QA,1682435336
449,manadhoo,5.7667,73.3833,29.34,69,28,3.87,MV,1682435336
450,westport,41.1415,-73.3579,15.1,52,0,3.6,US,1682435336
451,commerce,34.0006,-118.1598,17.25,81,100,0.0,US,1682435098
452,panaba,21.2833,-88.2667,31.75,43,1,4.15,MX,1682435337
453,severo-yeniseyskiy,60.3725,93.0408,-3.84,96,100,3.51,RU,1682435337
454,keflavik,64.0049,-22.5624,5.24,48,20,3.09,IS,1682435337
455,vallenar,-28.5708,-70.7581,24.81,33,0,1.97,CL,1682435337
456,baragua,21.6967,-78.6328,28.73,52,10,2.82,CU,1682435337
457,nova vicosa,-17.8919,-39.3719,27.0,72,23,3.01,BR,1682435337
458,micheweni,-4.9667,39.8333,27.86,79,47,5.6,TZ,1682435338
459,lucea,18.451,-78.1736,28.25,65,28,1.77,JM,1682435338
460,mitsamiouli,-11.3847,43.2844,27.96,74,100,8.21,KM,1682435338
461,kolonia,50.9333,6.95,12.76,45,20,5.66,DE,1682435238
462,paita,-5.0892,-81.1144,26.22,71,100,1.41,PE,1682435338
463,cidreira,-30.1811,-50.2056,23.55,64,100,5.26,BR,1682435338
464,rikaze,29.25,88.8833,7.9,28,92,3.06,CN,1682435122
465,kapuskasing,49.4169,-82.4331,-1.19,89,100,3.72,CA,1682435338
466,kayangel,8.0823,134.7173,28.26,74,7,3.07,PW,1682435339
467,kankan,10.3854,-9.3057,38.77,20,32,2.21,GN,1682435339
468,igrim,63.1906,64.4162,0.81,99,100,2.2,RU,1682435339
469,mahina,-17.5065,-149.489,24.87,88,75,1.54,PF,1682435339
470,fukuecho,32.6881,128.8419,14.83,85,100,9.29,JP,1682435339
471,san pedro pochutla,15.7333,-96.4667,28.73,54,67,1.5,MX,1682435339
472,junagarh,19.8667,82.9333,29.35,51,100,1.64,IN,1682435339
473,caminauit,12.3314,121.0825,27.28,78,14,2.35,PH,1682435340
474,mana,5.6592,-53.7767,28.59,75,100,3.69,GF,1682435340
475,tazacorte,28.629,-17.9293,22.54,78,20,4.12,ES,1682435340
476,pingdingshan,33.7385,113.3012,13.68,60,0,2.81,CN,1682435340
477,nola,40.922,14.5329,19.23,72,93,4.73,IT,1682435340
478,robertson,36.5167,-86.8667,12.34,45,40,3.09,US,1682435340
479,ghadamis,30.1337,9.5007,31.0,8,3,2.4,LY,1682435340
480,rumphi,-11.0186,33.8575,21.7,89,46,1.51,MW,1682435341
481,longido,-2.7333,36.6833,21.2,72,100,4.9,TZ,1682435341
482,sao jose de ribamar,-2.5619,-44.0542,33.21,71,28,3.92,BR,1682435341
483,byumba,-1.5763,30.0675,17.11,89,100,0.79,RW,1682435342
484,northam,51.0333,-4.2167,12.01,59,100,4.92,GB,1682435342
485,dolzhanskaya,46.6311,37.8039,11.86,83,100,7.3,RU,1682435342
486,alofi,-19.0595,-169.9187,25.58,74,84,2.98,NU,1682435343
487,oami,35.5167,140.3167,15.66,62,81,4.29,JP,1682435343
488,nanyuki,0.0167,37.0728,15.56,96,100,1.98,KE,1682435344
489,dunedin,-45.8742,170.5036,8.78,73,71,4.47,NZ,1682435274
490,quang ngai,15.1167,108.8,24.74,90,33,0.15,VN,1682435345
491,namsos,64.4662,11.4957,1.03,100,75,2.06,NO,1682435345
492,manicore,-5.8092,-61.3003,27.12,88,65,0.6,BR,1682435254
493,jalingo,8.8833,11.3667,40.17,15,95,3.12,NG,1682435346
494,porto novo,6.4965,2.6036,31.89,59,100,4.98,BJ,1682435346
495,taltal,-25.4,-70.4833,20.72,69,1,2.68,CL,1682435346
496,coyhaique,-45.5752,-72.0662,9.97,87,100,2.57,CL,1682435347
497,conception bay south,47.4999,-52.9981,3.36,93,100,6.71,CA,1682435348
498,guerrero negro,27.9769,-114.0611,16.47,68,100,3.85,MX,1682435348
499,amungan,15.3652,119.9582,27.41,80,21,2.28,PH,1682435348
500,wewak,-3.5534,143.6268,27.17,83,37,1.82,PG,1682435349
501,hami,42.8,93.45,17.71,29,97,7.88,CN,1682435350
502,malvan,16.0667,73.4667,27.5,75,19,3.61,IN,1682435351
503,talayuela,39.987,-5.6098,30.55,25,79,6.12,ES,1682435351
504,hinton,53.4001,-117.5857,4.69,83,100,2.16,CA,1682435351
505,aljezur,37.3191,-8.8033,23.66,47,24,6.03,PT,1682435351
506,borgo,46.0514,11.4544,16.03,59,88,1.57,IT,1682435352
507,santiago de cao,-7.9589,-79.2392,26.07,69,20,4.63,PE,1682435353
508,souillac,-20.5167,57.5167,26.19,82,89,0.59,MU,1682435353
509,mata-utu,-13.2816,-176.1745,27.97,74,97,0.6,WF,1682435354
510,essaouira,31.5125,-9.77,22.81,62,1,3.17,MA,1682435356
511,tchaourou,8.8865,2.5975,37.7,25,36,1.47,BJ,1682435358
512,taunggyi,20.7833,97.0333,21.17,39,12,0.27,MM,1682435363
513,faaa,-17.55,-149.6,24.98,88,75,3.58,PF,1682435365
514,felipe carrillo puerto,19.5833,-88.05,30.72,49,17,2.17,MX,1682435365
515,zakynthos,37.7914,20.8953,21.62,53,20,4.12,GR,1682435366
516,kot diji,27.3427,68.7083,31.01,11,100,2.95,PK,1682435372
517,abra pampa,-22.7205,-65.697,12.81,15,0,2.51,AR,1682435373
518,woolgoolga,-30.1106,153.2007,15.93,71,98,4.67,AU,1682435375
519,pandan,14.0453,124.1694,26.38,82,45,3.8,PH,1682435375
520,shirvan,39.9509,48.8994,20.55,52,100,6.15,AZ,1682435375
521,menongue,-14.6585,17.691,29.88,30,20,3.07,AO,1682435375
522,chernyshevskiy,63.0128,112.4714,-6.75,97,100,1.89,RU,1682435375
523,banda aceh,5.5577,95.3222,27.56,81,35,3.26,ID,1682435375
524,fada,9.5667,8.3,33.6,26,100,2.33,NG,1682435376
525,anglet,43.4766,-1.5135,19.38,83,75,5.14,FR,1682435376
526,puerto carreno,6.189,-67.4859,22.86,96,100,3.43,CO,1682435377
527,maturin,9.75,-63.1767,24.91,100,100,2.06,VE,1682435379
528,axim,4.8699,-2.2405,30.11,70,88,4.29,GH,1682435380
529,lamarque,-39.423,-65.7021,22.96,39,70,5.41,AR,1682435380
530,bykhaw,53.5193,30.2469,16.68,49,93,3.96,BY,1682435381
531,danville,36.586,-79.395,14.63,50,40,2.57,US,1682435381
532,pamandzi,-12.7967,45.2794,28.88,70,0,8.23,YT,1682435382
533,flekkefjord,58.2971,6.6607,9.41,53,4,9.56,NO,1682435382
534,kovdor,67.5662,30.4758,0.59,86,88,1.91,RU,1682435099
535,santa elena de uairen,4.6167,-61.1333,17.25,96,100,0.92,VE,1682435383
536,ganye,8.4333,12.0667,37.39,20,99,2.93,NG,1682435304
537,alaghsas,17.0187,8.0168,39.42,6,0,4.49,NE,1682435384
538,chernyshevsk,52.5243,117.0174,1.15,32,100,4.08,RU,1682435384
539,jingdezhen,29.2947,117.2079,12.64,92,100,0.61,CN,1682435384
540,port blair,11.6667,92.75,28.52,73,94,1.78,IN,1682435384
541,anna regina,7.2644,-58.5077,27.17,84,100,3.7,GY,1682435385
542,viedma,-40.8135,-62.9967,23.67,35,2,6.38,AR,1682435385
543,mariehamn,60.0973,19.9348,4.92,100,100,4.12,AX,1682435385
544,grand falls-windsor,48.9332,-55.6649,6.44,72,99,5.93,CA,1682435386
545,pyhajarvi,67.0701,27.2176,0.41,92,99,3.23,FI,1682435386
546,kavaratti,10.5669,72.642,28.12,68,84,4.18,IN,1682435387
547,tsiombe,-25.3,45.4833,21.2,72,98,3.45,MG,1682435387
548,ola,59.5833,151.2833,-1.76,83,100,4.63,RU,1682435387
549,gubkinskiy,64.434,76.5026,-5.83,91,59,2.28,RU,1682435388
550,keelung,25.1283,121.7419,22.25,94,100,4.65,TW,1682435388
551,xining,36.6167,101.7667,11.47,14,9,2.5,CN,1682435389
552,hotan,37.0997,79.9269,21.37,15,28,1.27,CN,1682435389
553,ceylanpinar,36.8472,40.05,22.67,37,6,2.41,TR,1682435389
554,tangalle,6.024,80.7911,26.09,83,100,1.54,LK,1682435389
555,keetmanshoop,-26.5833,18.1333,28.36,24,0,2.92,NA,1682435389
556,campo maior,-4.8278,-42.1686,32.03,49,59,2.37,BR,1682435389
557,palu,-0.8917,119.8707,24.94,94,100,1.33,ID,1682435390
558,aver-o-mar,41.4078,-8.7812,23.51,72,0,4.12,PT,1682435390
559,zyryanskoye,56.8306,86.6258,-0.49,78,96,3.69,RU,1682435390
560,gorontalo,0.5412,123.0595,24.78,95,62,1.0,ID,1682435390
561,punta del este,-34.9667,-54.95,21.09,88,100,1.54,UY,1682435390
562,ondjiva,-17.0667,15.7333,31.84,30,58,2.22,AO,1682435390
563,bangassou,4.7413,22.8184,30.48,51,77,3.64,CF,1682435390
564,swan hill,-35.3378,143.5544,16.81,63,97,3.06,AU,1682435257
565,deqen,29.9618,90.7188,3.57,64,93,0.73,CN,1682435122
566,flying fish cove,-10.4217,105.6791,27.19,77,31,4.56,CX,1682435390
567,caxito,-8.5785,13.6643,28.33,84,100,2.81,AO,1682435390
568,aracati,-4.5617,-37.7697,30.82,56,94,2.29,BR,1682435391
569,bayanhongor,46.7167,100.1167,2.74,72,100,2.49,MN,1682435391
570,san carlos,9.6612,-68.5827,32.73,39,68,1.71,VE,1682435391
571,korla,41.7597,86.1469,18.25,27,66,6.36,CN,1682435391
572,chibougamau,49.9168,-74.3659,3.79,87,100,3.09,CA,1682435391
573,bataipora,-22.2953,-53.2711,24.89,63,80,3.58,BR,1682435391
574,hammerfest,70.6634,23.6821,1.25,75,40,4.63,NO,1682435392
575,griffith,41.5284,-87.4237,9.01,83,100,3.6,US,1682435392
576,klyuchi,52.2667,79.1667,7.9,53,24,1.86,RU,1682435392
577,sligo,54.2697,-8.4694,11.96,32,0,2.06,IE,1682435392
578,port isabel,26.0734,-97.2086,24.48,94,100,3.6,US,1682435220
579,mangrol,21.1167,70.1167,27.26,77,100,6.86,IN,1682435393
580,puerto armuelles,8.2833,-82.8667,28.87,68,4,1.89,PA,1682435393
581,bintulu,3.1667,113.0333,26.87,81,100,1.42,MY,1682435393
582,kiunga,-6.1219,141.2906,23.85,99,100,0.98,PG,1682435393
583,luderitz,-26.6481,15.1594,22.11,64,0,9.01,NA,1682435393
584,boca suno,-0.7167,-77.1333,23.77,70,95,1.29,EC,1682435393
585,new plymouth,-39.0667,174.0833,15.31,100,55,8.88,NZ,1682435370
586,island harbour,50.724,-1.2758,12.86,56,99,1.79,GB,1682435394
587,stowmarket,52.1889,0.9977,11.08,60,75,3.6,GB,1682435394
588,ad dilam,23.9915,47.1627,33.15,18,12,3.15,SA,1682435394
589,merritt,50.1123,-120.7942,6.85,64,100,0.89,CA,1682435318
590,namtsy,62.7161,129.6658,-8.18,98,97,1.48,RU,1682435394
591,betio village,1.358,172.9211,27.02,77,100,4.04,KI,1682435394
592,qashyr,53.0675,76.1036,11.56,43,3,2.65,KZ,1682435394
593,raymondville,26.4815,-97.7831,24.41,82,100,1.39,US,1682435394
594,cotonou,6.3654,2.4183,30.59,67,92,5.83,BJ,1682435395
595,brookings,44.3114,-96.7984,6.19,59,0,7.2,US,1682435395
596,kargopol',61.5071,38.9456,15.96,61,43,1.02,RU,1682435395
597,honggang,46.4667,124.8667,3.92,23,38,1.63,CN,1682435395
598,rio grande,-32.035,-52.0986,24.06,81,99,3.13,BR,1682435395
599,mongagua,-24.0931,-46.6208,27.56,65,91,2.31,BR,1682435273
600,puerto cabezas,14.0351,-83.3888,29.23,56,14,2.88,NI,1682435395
601,barranca,-10.75,-77.7667,24.7,74,81,3.4,PE,1682435395
602,giado,31.9582,12.0203,28.33,13,1,2.75,LY,1682435396
603,qusmuryn,52.4503,64.6311,17.92,33,0,3.7,KZ,1682435396
604,yorosso,12.3536,-4.7761,40.9,9,6,4.1,ML,1682435396
605,amahai,-3.3333,128.9167,26.03,85,67,1.69,ID,1682435396
606,borda da mata,-22.2742,-46.1653,22.82,60,7,1.32,BR,1682435396
607,touros,-5.1989,-35.4608,27.98,79,77,5.69,BR,1682435396
608,waiuku,-37.25,174.75,17.04,75,100,5.69,NZ,1682435157
609,fort bragg,35.139,-79.006,17.89,55,0,4.12,US,1682435397
